[
  { "id": "cur-001", "name": "진해 여좌천 벚꽃길", "lat": 35.1578, "lon": 128.6579, "region": "경남 창원" },
  { "id": "cur-002", "name": "경화역 벚꽃길", "lat": 35.1563, "lon": 128.6701, "region": "경남 창원" },
  { "id": "cur-003", "name": "여의도 윤중로 벚꽃길", "lat": 37.5287, "lon": 126.9272, "region": "서울 영등포" },
  { "id": "cur-004", "name": "석촌호수 벚꽃길", "lat": 37.5089, "lon": 127.1006, "region": "서울 송파" },
  { "id": "cur-005", "name": "서울숲 벚꽃길", "lat": 37.5444, "lon": 127.0374, "region": "서울 성동" },
  { "id": "cur-006", "name": "남산 벚꽃길", "lat": 37.5513, "lon": 126.9882, "region": "서울 중구" },
  { "id": "cur-007", "name": "경복궁 인근 벚꽃길", "lat": 37.5798, "lon": 126.9770, "region": "서울 종로" },
  { "id": "cur-008", "name": "서울대공원 벚꽃길", "lat": 37.4344, "lon": 127.0165, "region": "경기 과천" },
  { "id": "cur-009", "name": "일산 호수공원 벚꽃길", "lat": 37.6576, "lon": 126.7668, "region": "경기 고양" },
  { "id": "cur-010", "name": "수원 화성 벚꽃길", "lat": 37.2851, "lon": 127.0196, "region": "경기 수원" },
  { "id": "cur-011", "name": "경주 보문단지 벚꽃길", "lat": 35.8382, "lon": 129.2831, "region": "경북 경주" },
  { "id": "cur-012", "name": "김천 연화지 벚꽃길", "lat": 36.1390, "lon": 128.1125, "region": "경북 김천" },
  { "id": "cur-013", "name": "하동 십리벚꽃길", "lat": 35.1970, "lon": 127.7534, "region": "경남 하동" },
  { "id": "cur-014", "name": "강릉 경포호 벚꽃길", "lat": 37.8019, "lon": 128.9088, "region": "강원 강릉" },
  { "id": "cur-015", "name": "춘천 소양강 벚꽃길", "lat": 37.8836, "lon": 127.7308, "region": "강원 춘천" },
  { "id": "cur-016", "name": "대전 갑천 벚꽃길", "lat": 36.3606, "lon": 127.3842, "region": "대전" },
  { "id": "cur-017", "name": "청주 무심천 벚꽃길", "lat": 36.6380, "lon": 127.4890, "region": "충북 청주" },
  { "id": "cur-018", "name": "전주 덕진공원 벚꽃길", "lat": 35.8462, "lon": 127.1297, "region": "전북 전주" },
  { "id": "cur-019", "name": "광주 중외공원 벚꽃길", "lat": 35.1815, "lon": 126.8792, "region": "광주" },
  { "id": "cur-020", "name": "제주 전농로 벚꽃길", "lat": 33.5046, "lon": 126.5282, "region": "제주" },
  { "id": "cur-021", "name": "애월 장전리 왕벚꽃거리", "lat": 33.4522, "lon": 126.3957, "region": "제주" },
  { "id": "cur-022", "name": "부산 삼락생태공원 벚꽃길", "lat": 35.1714, "lon": 128.9803, "region": "부산" },
  { "id": "cur-023", "name": "부산 달맞이길 벚꽃길", "lat": 35.1604, "lon": 129.1743, "region": "부산" },
  { "id": "cur-024", "name": "대구 이월드 벚꽃길", "lat": 35.8531, "lon": 128.5659, "region": "대구" },
  { "id": "cur-025", "name": "울산 태화강 벚꽃길", "lat": 35.5457, "lon": 129.3154, "region": "울산" }
]
